{"type": "FeatureCollection", "features": [{"type": "Feature", "geometry": {"type": "Point", "coordinates": [1.29609, 41.67555]}, "properties": {"nom": "Cervera", "codi": "C8", "pluja": 0.1}}, {"type": "Feature", "geometry": {"type": "Point", "coordinates": [0.39988, 40.71825]}, "properties": {"nom": "Mas de Barberans", "codi": "C9", "pluja": 0.4}}, {"type": "Feature", "geometry": {"type": "Point", "coordinates": [1.76796, 41.67399]}, "properties": {"nom": "Sant Salvador de Guardiola", "codi": "CL", "pluja": 0.2}}, {"type": "Feature", "geometry": {"type": "Point", "coordinates": [1.09894, 41.39241]}, "properties": {"nom": "l'Espluga de Francolí", "codi": "CW", "pluja": 0.1}}, {"type": "Feature", "geometry": {"type": "Point", "coordinates": [2.12379, 41.41864]}, "properties": {"nom": "Barcelona - Observatori Fabra", "codi": "D5", "pluja": 0.1}}, {"type": "Feature", "geometry": {"type": "Point", "coordinates": [0.59376, 41.18499]}, "properties": {"nom": "Vinebre", "codi": "D7", "pluja": 0.1}}, {"type": "Feature", "geometry": {"type": "Point", "coordinates": [1.52121, 41.21553]}, "properties": {"nom": "el Vendrell", "codi": "D9", "pluja": 0.4}}, {"type": "Feature", "geometry": {"type": "Point", "coordinates": [0.71581, 40.87287]}, "properties": {"nom": "el Perelló", "codi": "DB", "pluja": 0.1}}, {"type": "Feature", "geometry": {"type": "Point", "coordinates": [2.78969, 42.11653]}, "properties": {"nom": "Banyoles", "codi": "DJ", "pluja": 0.1}}, {"type": "Feature", "geometry": {"type": "Point", "coordinates": [1.41846, 41.14677]}, "properties": {"nom": "Torredembarra", "codi": "DK", "pluja": 0.1}}, {"type": "Feature", "geometry": {"type": "Point", "coordinates": [0.83449, 40.70719]}, "properties": {"nom": "Illa de Buda", "codi": "DL", "pluja": 0.6}}, {"type": "Feature", "geometry": {"type": "Point", "coordinates": [2.69436, 41.73894]}, "properties": {"nom": "Fogars de la Selva", "codi": "KP", "pluja": 0.1}}, {"type": "Feature", "geometry": {"type": "Point", "coordinates": [2.2427, 42.22189]}, "properties": {"nom": "Sant Joan de les Abadesses", "codi": "M6", "pluja": 0.2}}, {"type": "Feature", "geometry": {"type": "Point", "coordinates": [1.69584, 41.92047]}, "properties": {"nom": "Cardona", "codi": "MQ", "pluja": 0.1}}, {"type": "Feature", "geometry": {"type": "Point", "coordinates": [3.0968, 42.17716]}, "properties": {"nom": "Sant Pere Pescador", "codi": "U2", "pluja": 0.2}}, {"type": "Feature", "geometry": {"type": "Point", "coordinates": [1.84699, 41.83094]}, "properties": {"nom": "Castellnou de Bages", "codi": "U4", "pluja": 0.1}}, {"type": "Feature", "geometry": {"type": "Point", "coordinates": [1.06661, 41.08017]}, "properties": {"nom": "Vinyols i els Arcs - Cambrils", "codi": "U6", "pluja": 0.2}}, {"type": "Feature", "geometry": {"type": "Point", "coordinates": [0.50525, 40.85936]}, "properties": {"nom": "Aldover", "codi": "U7", "pluja": 0.1}}, {"type": "Feature", "geometry": {"type": "Point", "coordinates": [0.61635, 40.76947]}, "properties": {"nom": "l'Aldea", "codi": "U9", "pluja": 0.3}}, {"type": "Feature", "geometry": {"type": "Point", "coordinates": [0.76943, 40.9091]}, "properties": {"nom": "l'Ametlla de Mar", "codi": "UA", "pluja": 0.3}}, {"type": "Feature", "geometry": {"type": "Point", "coordinates": [3.15719, 42.02306]}, "properties": {"nom": "Torroella de Montgrí", "codi": "UE", "pluja": 0.1}}, {"type": "Feature", "geometry": {"type": "Point", "coordinates": [1.80479, 41.27861]}, "properties": {"nom": "Sant Pere de Ribes - PN del Garraf", "codi": "UK", "pluja": 0.1}}, {"type": "Feature", "geometry": {"type": "Point", "coordinates": [2.92694, 41.87449]}, "properties": {"nom": "Cassà de la Selva", "codi": "UN", "pluja": 0.5}}, {"type": "Feature", "geometry": {"type": "Point", "coordinates": [2.82069, 41.91461]}, "properties": {"nom": "Fornells de la Selva", "codi": "UO", "pluja": 0.1}}, {"type": "Feature", "geometry": {"type": "Point", "coordinates": [2.37702, 41.51773]}, "properties": {"nom": "Cabrils", "codi": "UP", "pluja": 0.1}}, {"type": "Feature", "geometry": {"type": "Point", "coordinates": [2.44532, 41.61991]}, "properties": {"nom": "Dosrius - PN Montnegre Corredor", "codi": "UQ", "pluja": 0.2}}, {"type": "Feature", "geometry": {"type": "Point", "coordinates": [0.52329, 40.55786]}, "properties": {"nom": "les Cases d'Alcanar", "codi": "US", "pluja": 0.3}}, {"type": "Feature", "geometry": {"type": "Point", "coordinates": [0.6321, 40.70776]}, "properties": {"nom": "Amposta", "codi": "UU", "pluja": 0.1}}, {"type": "Feature", "geometry": {"type": "Point", "coordinates": [0.65922, 40.62725]}, "properties": {"nom": "els Alfacs", "codi": "UW", "pluja": 0.2}}, {"type": "Feature", "geometry": {"type": "Point", "coordinates": [0.37112, 40.62652]}, "properties": {"nom": "Ulldecona - els Valentins", "codi": "UX", "pluja": 0.2}}, {"type": "Feature", "geometry": {"type": "Point", "coordinates": [0.76103, 41.87912]}, "properties": {"nom": "Os de Balaguer - el Monestir d'Avellanes", "codi": "UY", "pluja": 0.2}}, {"type": "Feature", "geometry": {"type": "Point", "coordinates": [0.82939, 41.78487]}, "properties": {"nom": "Vallfogona de Balaguer", "codi": "V1", "pluja": 0.1}}, {"type": "Feature", "geometry": {"type": "Point", "coordinates": [2.11993, 42.03947]}, "properties": {"nom": "Perafita", "codi": "V5", "pluja": 0.1}}, {"type": "Feature", "geometry": {"type": "Point", "coordinates": [0.63517, 41.06289]}, "properties": {"nom": "Benissanet", "codi": "VB", "pluja": 0.2}}, {"type": "Feature", "geometry": {"type": "Point", "coordinates": [0.3932, 41.65825]}, "properties": {"nom": "Gimenells", "codi": "VH", "pluja": 0.1}}, {"type": "Feature", "geometry": {"type": "Point", "coordinates": [1.16774, 41.1713]}, "properties": {"nom": "Constantí", "codi": "VQ", "pluja": 0.1}}, {"type": "Feature", "geometry": {"type": "Point", "coordinates": [0.77889, 42.63835]}, "properties": {"nom": "Lac Redon (2.247 m)", "codi": "VS", "pluja": 5.2}}, {"type": "Feature", "geometry": {"type": "Point", "coordinates": [1.91718, 41.63286]}, "properties": {"nom": "Rellinars", "codi": "VU", "pluja": 0.2}}, {"type": "Feature", "geometry": {"type": "Point", "coordinates": [1.29863, 41.25095]}, "properties": {"nom": "Nulles", "codi": "VY", "pluja": 0.1}}, {"type": "Feature", "geometry": {"type": "Point", "coordinates": [3.09021, 42.24726]}, "properties": {"nom": "Castelló d'Empúries", "codi": "W1", "pluja": 0.1}}, {"type": "Feature", "geometry": {"type": "Point", "coordinates": [1.31489, 42.07683]}, "properties": {"nom": "Oliana", "codi": "W5", "pluja": 0.3}}, {"type": "Feature", "geometry": {"type": "Point", "coordinates": [2.45451, 42.14557]}, "properties": {"nom": "la Vall d'en Bas", "codi": "W9", "pluja": 0.1}}, {"type": "Feature", "geometry": {"type": "Point", "coordinates": [1.1541, 41.87694]}, "properties": {"nom": "Oliola", "codi": "WA", "pluja": 0.3}}, {"type": "Feature", "geometry": {"type": "Point", "coordinates": [0.67022, 41.76036]}, "properties": {"nom": "Albesa", "codi": "WB", "pluja": 0.1}}, {"type": "Feature", "geometry": {"type": "Point", "coordinates": [0.4809, 41.35741]}, "properties": {"nom": "Maials", "codi": "WI", "pluja": 0.3}}, {"type": "Feature", "geometry": {"type": "Point", "coordinates": [1.69337, 41.48518]}, "properties": {"nom": "Canaletes", "codi": "WP", "pluja": 0.1}}, {"type": "Feature", "geometry": {"type": "Point", "coordinates": [2.75658, 41.64707]}, "properties": {"nom": "Malgrat de Mar", "codi": "WT", "pluja": 0.1}}, {"type": "Feature", "geometry": {"type": "Point", "coordinates": [1.9368, 41.79423]}, "properties": {"nom": "Artés", "codi": "WW", "pluja": 0.1}}, {"type": "Feature", "geometry": {"type": "Point", "coordinates": [0.88175, 41.9178]}, "properties": {"nom": "Camarasa", "codi": "WX", "pluja": 0.2}}, {"type": "Feature", "geometry": {"type": "Point", "coordinates": [1.63346, 41.20187]}, "properties": {"nom": "Cunit", "codi": "WZ", "pluja": 0.5}}, {"type": "Feature", "geometry": {"type": "Point", "coordinates": [1.02901, 41.92173]}, "properties": {"nom": "Baldomar", "codi": "X6", "pluja": 0.4}}, {"type": "Feature", "geometry": {"type": "Point", "coordinates": [2.1054, 41.37919]}, "properties": {"nom": "Barcelona - Zona Universitària", "codi": "X8", "pluja": 0.1}}, {"type": "Feature", "geometry": {"type": "Point", "coordinates": [2.16836, 41.61265]}, "properties": {"nom": "Caldes de Montbui", "codi": "X9", "pluja": 0.1}}, {"type": "Feature", "geometry": {"type": "Point", "coordinates": [1.4007, 41.60257]}, "properties": {"nom": "la Panadella", "codi": "XA", "pluja": 0.1}}, {"type": "Feature", "geometry": {"type": "Point", "coordinates": [1.97546, 41.47892]}, "properties": {"nom": "Castellbisbal", "codi": "XC", "pluja": 0.1}}, {"type": "Feature", "geometry": {"type": "Point", "coordinates": [1.201, 41.10393]}, "properties": {"nom": "Tarragona - Complex Educatiu", "codi": "XE", "pluja": 0.1}}, {"type": "Feature", "geometry": {"type": "Point", "coordinates": [2.06952, 41.56568]}, "properties": {"nom": "Sabadell - Parc Agrari", "codi": "XF", "pluja": 0.1}}, {"type": "Feature", "geometry": {"type": "Point", "coordinates": [2.80686, 41.98223]}, "properties": {"nom": "Girona", "codi": "XJ", "pluja": 0.3}}, {"type": "Feature", "geometry": {"type": "Point", "coordinates": [2.08022, 41.34045]}, "properties": {"nom": "el Prat de Llobregat", "codi": "XL", "pluja": 0.2}}, {"type": "Feature", "geometry": {"type": "Point", "coordinates": [0.43006, 41.06564]}, "properties": {"nom": "Gandesa", "codi": "XP", "pluja": 0.1}}, {"type": "Feature", "geometry": {"type": "Point", "coordinates": [1.72195, 41.28801]}, "properties": {"nom": "Canyelles", "codi": "XU", "pluja": 0.3}}, {"type": "Feature", "geometry": {"type": "Point", "coordinates": [0.55027, 41.56509]}, "properties": {"nom": "Alcarràs", "codi": "XY", "pluja": 0.2}}, {"type": "Feature", "geometry": {"type": "Point", "coordinates": [3.06202, 42.18139]}, "properties": {"nom": "Torroella de Fluvià", "codi": "XZ", "pluja": 0.4}}, {"type": "Feature", "geometry": {"type": "Point", "coordinates": [2.86295, 42.22793]}, "properties": {"nom": "Navata", "codi": "Y5", "pluja": 0.1}}, {"type": "Feature", "geometry": {"type": "Point", "coordinates": [0.8561, 41.51124]}, "properties": {"nom": "les Borges Blanques", "codi": "YD", "pluja": 0.1}}, {"type": "Feature", "geometry": {"type": "Point", "coordinates": [1.305756, 41.79409]}, "properties": {"nom": "Massoteres", "codi": "YE", "pluja": 0.2}}, {"type": "Feature", "geometry": {"type": "Point", "coordinates": [0.9345, 41.02066]}, "properties": {"nom": "Miami Platja", "codi": "YF", "pluja": 0.1}}, {"type": "Feature", "geometry": {"type": "Point", "coordinates": [2.29841, 41.60922]}, "properties": {"nom": "Granollers", "codi": "YM", "pluja": 0.1}}, {"type": "Feature", "geometry": {"type": "Point", "coordinates": [0.80198, 42.69737]}, "properties": {"nom": "Vielha - Elipòrt", "codi": "YN", "pluja": 0.1}}, {"type": "Feature", "geometry": {"type": "Point", "coordinates": [3.16073, 41.90694]}, "properties": {"nom": "Palafrugell", "codi": "YP", "pluja": 0.4}}, {"type": "Feature", "geometry": {"type": "Point", "coordinates": [2.1372, 41.31928]}, "properties": {"nom": "Port de Barcelona - ZAL Prat", "codi": "YQ", "pluja": 0.1}}, {"type": "Feature", "geometry": {"type": "Point", "coordinates": [1.73148, 41.23575]}, "properties": {"nom": "Vilanova i la Geltrú", "codi": "YR", "pluja": 0.3}}, {"type": "Feature", "geometry": {"type": "Point", "coordinates": [2.956401, 42.32038]}, "properties": {"nom": "Cabanes", "codi": "YS", "pluja": 0.1}}, {"type": "Feature", "geometry": {"type": "Point", "coordinates": [1.07527, 42.75089]}, "properties": {"nom": "Bonabé (1.693 m)", "codi": "YT", "pluja": 0.2}}, {"type": "Feature", "geometry": {"type": "Point", "coordinates": [2.04487, 41.28797]}, "properties": {"nom": "Viladecans - les Filipines", "codi": "YY", "pluja": 0.2}}, {"type": "Feature", "geometry": {"type": "Point", "coordinates": [0.98486, 42.64691]}, "properties": {"nom": "Bonaigua (2.266 m)", "codi": "Z1", "pluja": 1.5}}, {"type": "Feature", "geometry": {"type": "Point", "coordinates": [1.7785, 42.46605]}, "properties": {"nom": "Malniu (2.230 m)", "codi": "Z3", "pluja": 1.2}}, {"type": "Feature", "geometry": {"type": "Point", "coordinates": [1.27201, 42.70029]}, "properties": {"nom": "Certascan (2.400 m)", "codi": "Z5", "pluja": 3.7}}, {"type": "Feature", "geometry": {"type": "Point", "coordinates": [0.73198, 42.77011]}, "properties": {"nom": "Sasseuva (2.228 m)", "codi": "Z6", "pluja": 1.8}}]}